Pays;CODE;Cat;Nom;Fréquence;Altitude;Latitude;Longitude;
LF;LFBA/NA;PtRep;Agen Pont RN13 VF (M.I.N.);;170;44.1928;0.646667;
LF;LFBA/N;PtRep;Agen RN21 D13 Foulayronnes;;520;44.245;0.643333;
LF;LFBA/W;PtRep;Agen Silos Feugarolle;;150;44.2286;0.351944;
LF;LFBA/S;PtRep;Agen Village Astaffort;;300;44.0639;0.651389;
LF;LFBA/WB;PtRep;Agen Village Laplume;;700;44.1114;0.531389;
LF;LFBA/SA;PtRep;Agen Village Layrac;;200;44.135;0.660556;
LF;LFBA/WA;PtRep;Agen Village Serignac s/G;;140;44.2142;0.484722;
LF;LFMA/AE;PtRep;Aix 1 Km Nord Ch Gardanne;;750;43.48;5.48528;
LF;LFMA/AS;PtRep;Aix 1 Km W Cabriès;;600;43.445;5.37222;
LF;LFMA/AW;PtRep;Aix Acqueduc Roquefavour;;400;43.5161;5.31194;
LF;LFMA/AR;PtRep;Aix Bretelle A8 Aix Ouest - Panne Radio;;650;43.5269;5.40222;
LF;LFMA/AT;PtRep;Aix Carrefour Est Eguilles;;880;43.5725;5.39194;
LF;LFMA/AN;PtRep;Aix Tr Est tr de guet W Eguilles;;570;43.5639;5.33639;
LF;LFKJ/SA;PtRep;Ajaccio Capu di Muru;;1;41.7389;8.65833;
LF;LFKJ/SEA;PtRep;Ajaccio Carr. Bocca Arghellaju;;1900;41.8103;8.84833;
LF;LFKJ/N;PtRep;Ajaccio Plage de Stagnone;;30;42.0472;8.74722;
LF;LFKJ/W;PtRep;Ajaccio Sémaphore Iles Sanguinaires;;1;41.8756;8.58806;
LF;LFKJ/S;PtRep;Ajaccio Sierra;;1;41.6619;8.72333;
LF;LFKJ/WA;PtRep;Ajaccio Sud Cimetière;;1;41.8972;8.70472;
LF;LFKJ/SB;PtRep;Ajaccio Sud plage d'Agosta;;140;41.8536;8.79167;
LF;LFKJ/SC;PtRep;Ajaccio Tour de Capitello;;15;41.9042;8.79917;
LF;LFKJ/NWA;PtRep;Ajaccio Tr Ch. de la Punta;;700;41.9619;8.72778;
LF;LFKJ/NV;PtRep;Ajaccio Tr Col Vizzanova;;4000;42.1097;9.11389;
LF;LFKJ/NW;PtRep;Ajaccio Trav. Cargèse;;1;42.1211;8.51639;
LF;LFKJ/NZ;PtRep;Ajaccio ZA de Tavaco;;550;42.0183;8.89333;
LF;LFAQ/SA;PtRep;Albert Cappy sur canal;;170;49.9239;2.75972;
LF;LFAQ/N;PtRep;Albert Hamel Vallée de l'Ancre;;270;50.0656;2.66222;
LF;LFAQ/S;PtRep;Albert Inter N29/A1;;260;49.8739;2.83472;
LF;LFAQ/WA;PtRep;Albert Mémorial de Cerisy;;120;49.9056;2.6325;
LF;LFAQ/W;PtRep;Albert Mémorial Sud Corbie;;300;49.8869;2.51167;
LF;LFAQ/NA;PtRep;Albert Nord ZI Albert;;320;50.0161;2.67333;
LF;LFCD/N;PtRep;Andernos Plage de St-Brice;;1;44.7464;-1.11806;
LF;LFCD/SE;PtRep;Andernos Réservoir Dom. De Certes;;1;44.6917;-1.04556;
LF;LFLI/R;PtRep;Anemasse Ouest Reignier;;1600;46.1419;6.26111;
LF;LFJR/SE;PtRep;Angers M. Beaufort en V.;;80;47.4408;-0.212222;
LF;LFJR/N;PtRep;Angers M. inter A11/Loir;;80;47.655;-0.272778;
LF;LFJR/SW;PtRep;Angers M. Inter A87-Loire;;60;47.4175;-0.505556;
LF;LFJR/S;PtRep;Angers M. Péage;;150;47.5411;-0.341389;
LF;LFJR/NW;PtRep;Angers M. Pt Châteauneuf s Sarthe;;65;47.6781;-0.486667;
LF;LFBU/NE;PtRep;Angoulême Carrière N Forêt Braconne;;300;45.7936;0.293611;
LF;LFBU/SE;PtRep;Angoulême Ech N141 + Antenne;;500;45.7025;0.264722;
LF;LFBU/NA;PtRep;Angoulême Entrepôts;;310;45.7775;0.192222;
LF;LFBU/NW;PtRep;Angoulême Inter N10/D15;;470;45.8106;0.1925;
LF;LFBU/SA;PtRep;Angoulême Nd Pl Eau St-Yriex;;110;45.6919;0.150833;
LF;LFBU/S;PtRep;Angoulême Touvre;;200;45.6611;0.259444;
LF;LFLP/ALBY;PtRep;Annecy Alby sur Chéran;;1400;45.8167;6.02028;
LF;LFLP/NE;PtRep;Annecy Col d'Evires A410 N203;;2600;46.0447;6.2575;
LF;LFLP/N;PtRep;Annecy Cruseilles;;2600;46.0344;6.10722;
LF;LFLP/E;PtRep;Annecy Ech des Glaisins;;1700;45.9353;6.16806;
LF;LFLP/HS;PtRep;Annecy Ech. Centre A41/D3508 (Hél.);;1600;45.8969;6.08778;
LF;LFLP/NA;PtRep;Annecy Echangeur A41 N201;;2200;46.0044;6.13167;
LF;LFLP/NW;PtRep;Annecy Lac de la Balme;;1610;45.9667;6.03333;
LF;LFLP/HN;PtRep;Annecy Pont de Brogny (Hél.);;1500;45.9333;6.12833;
LF;LFLP/SJ;PtRep;Annecy Saint Jorioz;;1500;45.8442;6.17417;
LF;LFLP/SA;PtRep;Annecy Seynold Ctre Comm;;1850;45.8758;6.08778;
LF;LFLP/HM;PtRep;Annecy Stade Cimetière (Hél.);;1430;45.9214;6.11583;
LF;LFLP/EA;PtRep;Annecy Station épurat. ALEX;;1800;45.8958;6.22833;
LF;LFLI/BIVLO;PtRep;Annemasse BIVLO;;1500;46.1972;6.25389;
LF;LFLI/SW;PtRep;Annemasse Est Fort Ecluse;;1200;46.1217;5.89917;
LF;LFLI/E;PtRep;Annemasse Excenevex;;1300;46.3472;6.36306;
LF;LFLI/S;PtRep;Annemasse Inter St-Julien;;1650;46.1336;6.09944;
LF;LFLI/N;PtRep;Annemasse Lac Divonne;;1530;46.3544;6.15333;
LF;LFLI/MOLUS;PtRep;Annemasse MOLUS;;1250;46.4439;6.67944;
LF;LFLI/SE;PtRep;Annemasse Port Noir;;1250;46.2128;6.1725;
LF;LFLI/W;PtRep;Annemasse St-Jean;;1500;46.2286;5.995;
LF;LFCH/NE;PtRep;Arcachon Est la Mole;;8;44.6436;-1.04833;
LF;LFCH/E;PtRep;Arcachon Est Parc du Teich;;32;44.6333;-1.00556;
LF;LFCH/W;PtRep;Arcachon Milieu Dune Pyla;;250;44.5892;-1.21361;
LF;LFCH/N;PtRep;Arcachon Nord Hippodrome;;50;44.6033;-1.12694;
LF;LFCH/P;PtRep;Arcachon Sud Plage Petit Nice;;100;44.5681;-1.23056;
LF;LFMV/NE;PtRep;Avignon C. Carpentras;;320;44.0542;5.05139;
LF;LFMV/W;PtRep;Avignon C. Durance Rhône;;60;43.9222;4.74167;
LF;LFMV/SW;PtRep;Avignon C. Graveson;;50;43.8583;4.77917;
LF;LFMV/NA;PtRep;Avignon C. Ile Barthelasse;;80;43.9872;4.82472;
LF;LFMV/E;PtRep;Avignon C. Isle sur Sorgue;;200;43.9203;5.05694;
LF;LFMV/NW;PtRep;Avignon C. Roquemaure;;100;44.0603;4.78972;
LF;LFMV/SE;PtRep;Avignon C. Sablière Nord Durance;;200;43.8583;4.9875;
LF;LFOA/BOU;PtRep;Avord Bourges;;480;47.0658;2.36167;
LF;LFOA/NE;PtRep;Avord Chaumoux Marcilly;;670;47.1272;2.77917;
LF;LFOA/DUN;PtRep;Avord Dun sur Auron;;600;46.8867;2.57111;
LF;LFOA/W;PtRep;Avord Fussy;;500;47.1494;2.42889;
LF;LFOA/S;PtRep;Avord La Chaussée;;600;46.9242;2.58639;
LF;LFOA/N;PtRep;Avord Les Aix d'Anguillon;;650;47.1969;2.57389;
LF;LFOA/SE;PtRep;Avord Nérondes;;700;46.99;2.82944;
LF;LFOA/W1;PtRep;Avord Sainte Solange;;550;47.1436;2.56194;
LF;LFOA/BS;PtRep;Avord SE Bourges;;530;47.06;2.42722;
LF;LFOA/BN;PtRep;Avord St Germain du Puy;;460;47.0981;2.4675;
LF;LFCB/CIE;PtRep;Bagneres De Luchon Cierp;;1650;42.9181;0.636944;
LF;LFSB/E;PtRep;Bâle Bge N de Huningue;;1300;47.6192;7.5725;
LF;LFSB/W;PtRep;Bâle Cimenterie Altkirch;;1200;47.6325;7.23583;
LF;LFSB/WA;PtRep;Bâle Entre 2 lignes HT sur rte;;1320;47.6;7.38139;
LF;LFSB/NE;PtRep;Bâle Inter N3/K6345;;1020;47.7075;7.58083;
LF;LFSB/N;PtRep;Bâle Pont Rhin Chalampé;;700;47.815;7.54278;
LF;LFSB/S;PtRep;Bâle Pt Autoroute NE Pratteln;;920;47.5267;7.71472;
LF;LFSB/WB;PtRep;Bâle Radar;;1585;47.5889;7.49528;
LF;LFKB/W;PtRep;Bastia Col de Lancone;;1200;42.6;9.36611;
LF;LFKB/NW;PtRep;Bastia Col de Téghime;;1700;42.6722;9.38278;
LF;LFKB/NA;PtRep;Bastia Hipp. Casatorra;;50;42.6194;9.43556;
LF;LFKB/S;PtRep;Bastia Port Campoloro;;1;42.3389;9.54111;
LF;LFKB/N1;PtRep;Bastia Tour le Losse;;60;42.8611;9.48083;
LF;LFKB/SA;PtRep;Bastia Tr Sud Centrale Lucciana;;110;42.5222;9.44389;
LF;LFKB/N;PtRep;Bastia Trav. Port;;1;42.7028;9.46333;
LF;LFKB/SW;PtRep;Bastia Us. Barchetta;;300;42.5083;9.37167;
LF;LFOB/SW;PtRep;Beauvais A16 (Tr W Relais Bois de la Molle);;750;49.3239;2.08;
LF;LFOB/N;PtRep;Beauvais A16/N1 (Bois St-Martin);;500;49.5236;2.1875;
LF;LFOB/S;PtRep;Beauvais Allone (Ech A16);;300;49.3978;2.12889;
LF;LFOB/WB;PtRep;Beauvais Goincourt;;250;49.4278;2.03972;
LF;LFOB/SE;PtRep;Beauvais Noailles (N1/D2/D44);;300;49.3292;2.2;
LF;LFOB/W;PtRep;Beauvais Pont N31;;350;49.4194;1.9375;
LF;LFBE/S;PtRep;Bergerac Castillonès Chap.;;350;44.6517;0.6;
LF;LFBE/NA;PtRep;Bergerac Ch Eau Pélissous;;410;44.8756;0.548611;
LF;LFBE/SA;PtRep;Bergerac Colombier Ch D'eau;;560;44.7753;0.521944;
LF;LFBE/NW;PtRep;Bergerac D709 / Hte Tension;;280;44.9314;0.430278;
LF;LFBE/SW;PtRep;Bergerac Eymet Église;;170;44.6678;0.396389;
LF;LFBE/SE;PtRep;Bergerac Issigeac;;370;44.7303;0.607222;
LF;LFBE/NE;PtRep;Bergerac RN21/Hte Tens.;;300;44.9194;0.560833;
LF;LFMU/SE;PtRep;Béziers Cap d'Agde;;1;43.2706;3.50583;
LF;LFMU/CG;PtRep;Béziers Capestang;;100;43.3311;3.04167;
LF;LFMU/AD;PtRep;Béziers Embouchure Aude;;1;43.2128;3.24;
LF;LFMU/NB;PtRep;Béziers Lieuran les Béziers;;210;43.4206;3.23694;
LF;LFMU/PZ;PtRep;Béziers Pézenas;;50;43.4747;3.44528;
LF;LFMU/MZ;PtRep;Béziers ZI NW Mèze Autor.;;80;43.4425;3.57611;
LF;LFBZ/BG;PtRep;Biarritz Bec du Gave Adour/Gave;;10;43.5461;-1.195;
LF;LFBZ/SE;PtRep;Biarritz Cambo Arnaga;;150;43.3678;-1.4225;
LF;LFBZ/NE;PtRep;Biarritz Château d'Eau;;160;43.5197;-1.4025;
LF;LFBZ/S;PtRep;Biarritz Colline Sainte Barbe;;410;43.4172;-1.49472;
LF;LFBZ/NA;PtRep;Biarritz Embouch. Adour;;1;43.5303;-1.52361;
LF;LFBZ/SH;PtRep;Biarritz Hasparren;;450;43.385;-1.305;
LF;LFBZ/E;PtRep;Biarritz Inter D936/A64;;30;43.4667;-1.28694;
LF;LFBZ/SW;PtRep;Biarritz N. Baie Saint Jean de Luz;;1;43.3994;-1.66444;
LF;LFBZ/NC;PtRep;Biarritz Phare Cap Breton;;1;43.6558;-1.44833;
LF;LFBZ/NP;PtRep;Biarritz Phare de Biarritz;;65;43.4928;-1.5525;
LF;LFBZ/SB;PtRep;Biarritz Plage de Bidart;;1;43.4369;-1.59694;
LF;LFBS/O2;PtRep;Biscarosse 1NM Est Bisc. Plage;;200;44.45;-1.225;
LF;LFBS/OS;PtRep;Biscarosse Nord Ville Bisc.;;90;44.4167;-1.15;
LF;LFBD/SW;PtRep;Bordeaux Ant. Croix d'Hins;;210;44.7042;-0.77;
LF;LFBD/N;PtRep;Bordeaux Castelnau de Méd.;;70;45.0289;-0.796944;
LF;LFBD/EA;PtRep;Bordeaux D1215/D1 Le Taillan;;30;44.8936;-0.668889;
LF;LFBD/SE;PtRep;Bordeaux Ile de la Lande;;10;44.7458;-0.504167;
LF;LFBD/NE;PtRep;Bordeaux Macau;;30;45.0083;-0.6125;
LF;LFBD/S;PtRep;Bordeaux N1010 D214 La Birade;;200;44.7167;-0.690278;
LF;LFBD/NA;PtRep;Bordeaux N1215/D6 Saint Médard;;140;44.9075;-0.747222;
LF;LFBD/NW;PtRep;Bordeaux Sainte Hélène;;140;44.9756;-0.880833;
LF;LFBD/OA;PtRep;Bordeaux Us. Déchetterie;;185;44.7697;-0.771111;
LF;LFBD/SA;PtRep;Bordeaux Usine Gazinet;;190;44.775;-0.691667;
LF;LFRB/LF;PtRep;Brest 1,5 Nm SE Le Faou (Ax);;500;48.2833;-4.13333;
LF;LFRB/PA;PtRep;Brest Ch eau Plabennec;;280;48.5042;-4.42278;
LF;LFRB/SG;PtRep;Brest Daoulas;;100;48.37;-4.26111;
LF;LFRB/NWL;PtRep;Brest Kerdroc Croisement;;165;48.6103;-4.37889;
LF;LFRB/NG;PtRep;Brest Lannilis;;110;48.5667;-4.52833;
LF;LFRB/LC;PtRep;Brest Le Conquet;;30;48.365;-4.78361;
LF;LFRB/K;PtRep;Brest Le Relecq Kerhuon;;70;48.4067;-4.37417;
LF;LFRB/SWL;PtRep;Brest Pencran Golf;;450;48.4167;-4.2;
LF;LFRB/WG;PtRep;Brest Saint Renan;;200;48.4297;-4.61722;
LF;LFSL/N;PtRep;Brive Souillac A3/N89;;370;45.1472;1.48528;
LF;LFSL/W;PtRep;Brive Souillac Ch. Salignac;;850;44.975;1.32694;
LF;LFSL/NA;PtRep;Brive Souillac Ech. A20 Noailles;;750;45.0986;1.52;
LF;LFSL/S;PtRep;Brive Souillac Ech. A20 Souillac;;550;44.9017;1.50111;
LF;LFSL/E;PtRep;Brive Souillac Martel;;800;44.9369;1.60889;
LF;LFSL/SA;PtRep;Brive Souillac Péage A20;;930;44.9906;1.52667;
LF;LFRK/SC;PtRep;Caen Ch. D'eau Evrecy;;230;49.0992;-0.512222;
LF;LFRK/EK;PtRep;Caen Cimenterie Ranville;;80;49.2239;-0.275556;
LF;LFRK/SK;PtRep;Caen Orne NW Thury-Harcourt;;220;48.9939;-0.475556;
LF;LFRK/SW;PtRep;Caen Pt 4 voies SE Villers-Bocage;;510;49.0781;-0.641389;
LF;LFRK/W;PtRep;Caen Rd-Pt Forêt Balleroy;;230;49.1936;-0.864444;
LF;LFRK/NK;PtRep;Caen Saint Contest (Tr);;250;49.2119;-0.403333;
LF;LFRK/EY;PtRep;Caen Sucrerie Cagny;;90;49.1408;-0.253889;
LF;LFAC/PC;PtRep;Calais Port (Supp);;1;50.97;1.84694;
LF;LFKC/EA;PtRep;Calvi Cantone;;100;42.5411;8.79917;
LF;LFKC/IR;PtRep;Calvi l'Ile Rousse;;30;42.6444;8.93167;
LF;LFKC/N;PtRep;Calvi La Revellata;;60;42.5831;8.72444;
LF;LFKC/MER;PtRep;Calvi Merlu;;1;43.0797;7.79306;
LF;LFKC/PB;PtRep;Calvi Pt en Mer;;1;42.5694;8.665;
LF;LFKC/NW;PtRep;Calvi Pt en Mer;;1;42.5753;8.69083;
LF;LFKC/W;PtRep;Calvi Punta Ricci;;10;42.5606;8.71667;
LF;LFKC/E;PtRep;Calvi Punta San Damiano;;20;42.6122;8.85222;
LF;LFKC/S;PtRep;Calvi Sémaphore Cavallo;;900;42.5125;8.665;
LF;LFKC/TOR;PtRep;Calvi Tortu;;1;43.3881;8.95806;
LF;LFKC/WC;PtRep;Calvi WC 6nm NW Punta Ricci;;1;42.6192;8.61361;
LF;LFMD/SB;PtRep;Cannes 1 Km Sud Cap Gros;;1;43.5353;7.145;
LF;LFMD/SA;PtRep;Cannes 1 Km sud Ile Saint Honorat;;1;43.4889;7.04694;
LF;LFMD/SV;PtRep;Cannes 1 Nm Ouest St Honorat (Hél);;1;43.5075;7.03167;
LF;LFMD/DR;PtRep;Cannes 1 nm S Ph. Pte Dramont;;1;43.3983;6.85556;
LF;LFMD/SW;PtRep;Cannes 1 nm/SE Cap Roux;;1;43.4358;6.935;
LF;LFMD/NA;PtRep;Cannes Bge Var Nord Ctr Comm;;200;43.75;7.18889;
LF;LFMD/WA;PtRep;Cannes Château Cagnes S M;;130;43.6669;7.14556;
LF;LFMD/HE;PtRep;Cannes Digue Est Jetée SW Gare Tr (Hél);;1;43.5431;6.96833;
LF;LFMD/TA;PtRep;Cannes Entre Sud Rocher R et HV;;1;43.5367;7.00167;
LF;LFMD/EW;PtRep;Cannes Golf sud Opio;;900;43.66;6.98;
LF;LFMD/HW;PtRep;Cannes Jetée Est Port Béal (Hél);;1;43.5378;6.95861;
LF;LFMD/HV;PtRep;Cannes Ouest Phare Bertéguier (Hél);;1;43.5256;7.01667;
LF;LFMD/PF;PtRep;Cannes Phare Fourmigue;;1;43.5394;7.07778;
LF;LFMD/WL;PtRep;Cannes Pte Sud Lac St Cassien;;500;43.5539;6.79389;
LF;LFMD/LC;PtRep;Cannes Rte/A8;;320;43.5858;6.99778;
LF;LFMD/WD;PtRep;Cannes Stade Planestel -  Sud A8;;1000;43.5211;6.80667;
LF;LFMD/N;PtRep;Cannes Stade Tignet;;900;43.6328;6.85306;
LF;LFMD/TD;PtRep;Cannes W SV Sud TA;;1;43.5056;6.99444;
LF;EGJA/HAG;PtRep;Cap de La Hague;;1;49.7167;-1.95;
LF;LFMK/WA;PtRep;Carcassonne Alzonne;;420;43.2542;2.1775;
LF;LFMK/ES;PtRep;Carcassonne Capendu;;300;43.185;2.55611;
LF;LFMK/NC;PtRep;Carcassonne Conques sur Orbiel;;450;43.2686;2.40056;
LF;LFMK/SF;PtRep;Carcassonne Coufoullens;;500;43.1556;2.30583;
LF;LFMK/S;PtRep;Carcassonne Limoux;;600;43.0544;2.21667;
LF;LFMK/WP;PtRep;Carcassonne Prouilles;;700;43.1936;2.055;
LF;LFMK/EN;PtRep;Carcassonne Rieux Minervois;;400;43.2822;2.58778;
LF;LFMK/WM;PtRep;Carcassonne Sud Montréal;;700;43.1903;2.14194;
LF;LFMK/W;PtRep;Carcassonne Villepinte;;450;43.2822;2.08639;
LF;LFNH/NE;PtRep;Carpentras NE arr Planeurs;;620;44.0364;5.09472;
LF;LFBC/NE;PtRep;Cazaux Bassin Est Port la Mole;;10;44.6436;-1.04833;
LF;LFBC/B;PtRep;Cazaux Ch. D'eau;;80;44.4872;-1.07111;
LF;LFBC/C;PtRep;Cazaux Cimetière;;90;44.5306;-1.16167;
LF;LFBC/E;PtRep;Cazaux Est Parc du Teich;;30;44.6333;-1.00556;
LF;LFBC/A;PtRep;Cazaux Inter D804 - Plan d'eau (Hél.);;80;44.5542;-1.15278;
LF;LFBC/W;PtRep;Cazaux Nd Dune Pyla;;250;44.5986;-1.21111;
LF;LFBC/WS;PtRep;Cazaux Sud Dune Pyla;;250;44.575;-1.225;
LF;LFOK/S;PtRep;Chalons Vatry A26 D98 VF;;480;48.6708;4.17333;
LF;LFOK/WA;PtRep;Chalons Vatry Connantray Vaurefoy;;480;48.7475;4.06222;
LF;LFOK/N;PtRep;Chalons Vatry Echangeur A26 D5;;420;48.9119;4.28611;
LF;LFOK/SW;PtRep;Chalons Vatry Silo W Sommesous;;550;48.735;4.19222;
LF;LFOK/W;PtRep;Chalons Vatry Sucrerie Connantre;;340;48.7272;3.9;
LF;LFOK/N1;PtRep;Chalons Vatry Usine West Vatry;;400;48.8239;4.22417;
LF;LFLB/ALBY;PtRep;Chambéry Alby sur Chéran;;1400;45.8167;6.02028;
LF;LFLB/WB;PtRep;Chambéry Belley (Rd Pt);;790;45.7581;5.70556;
LF;LFLB/NL;PtRep;Chambéry Bout du Lac (Nord);;770;45.8058;5.82889;
LF;LFLB/WA;PtRep;Chambéry Col du Chat;;2200;45.6928;5.84694;
LF;LFLB/SW;PtRep;Chambéry Col du crucifix;;3000;45.5556;5.83111;
LF;LFLB/SM;PtRep;Chambéry Ech. Autoroute;;900;45.4839;6.02361;
LF;LFLB/EY;PtRep;Chambéry Ech. Grésy sur Aix;;960;45.7142;5.92389;
LF;LFLB/WG;PtRep;Chambéry St-Génix sur Guiers;;790;45.5981;5.63167;
LF;LFLB/WC;PtRep;Chambéry Sud Culloz (Ch. De F.);;790;45.8431;5.77917;
LF;LFLB/SB;PtRep;Chambéry ZI Albanne;;1040;45.5431;5.95667;
LF;LFOC/SW;PtRep;Châteaudun Cloyes Plan d'eau;;320;48.0103;1.24361;
LF;LFOC/NA;PtRep;Chateaudun Flacey - Inter N10/D110;;500;48.1467;1.35056;
LF;LFOC/SA;PtRep;Châteaudun La Ferté Villeneuil;;410;47.9803;1.3375;
LF;LFOC/NW;PtRep;Châteaudun Logron Cimet.;;530;48.1478;1.26722;
LF;LFOC/NE;PtRep;Chateaudun Varize (Ch. D'eau);;420;48.0992;1.51583;
LF;LFOC/SE;PtRep;Chateaudun Verdes (Silo);;400;47.9625;1.42361;
LF;LFLX/SE;PtRep;Châteauroux Ardentes;;550;46.7417;1.83056;
LF;LFLX/NW;PtRep;Châteauroux Chât. Villegongis;;490;46.9147;1.59861;
LF;LFLX/S;PtRep;Châteauroux Échangeur;;500;46.6994;1.58333;
LF;LFLX/E;PtRep;Châteauroux Inters. À Vouillon;;510;46.8219;1.925;
LF;LFLX/N;PtRep;Châteauroux Levroux Poste Électr.;;450;46.9728;1.6;
LF;LFLX/NE;PtRep;Châteauroux Sud Issoudun;;450;46.9386;1.99722;
LF;LFLX/W;PtRep;Châteauroux Villedieux/Indre Cimet.;;450;46.8506;1.53028;
LF;LFRC/N;PtRep;Cherbourg Cap Lévy;;1;49.6981;-1.47306;
LF;LFRC/WC;PtRep;Cherbourg CC La Glacerie;;550;49.5986;-1.595;
LF;LFRC/SB;PtRep;Cherbourg Ch. D'eau Saussemesnil;;415;49.5772;-1.4625;
LF;LFRC/SC;PtRep;Cherbourg Fort de la Hougue;;30;49.5736;-1.275;
LF;LFRC/EC;PtRep;Cherbourg Phare Gatteville;;1;49.6825;-1.27194;
LF;LFRC/SU;PtRep;Cherbourg Valognes;;100;49.5097;-1.47167;
LF;LFLC/N;PtRep;Clermont Fd A71 sortie Riom;;1050;45.8953;3.15389;
LF;LFLC/SB;PtRep;Clermont Fd Billom;;1200;45.7225;3.33722;
LF;LFLC/SE;PtRep;Clermont Fd Courpière;;1100;45.7547;3.53833;
LF;LFLC/S;PtRep;Clermont Fd Ech. Champeix;;1250;45.6533;3.16861;
LF;LFLC/NA;PtRep;Clermont Fd Péage Gerzat;;1100;45.8414;3.16028;
LF;LFLC/SA;PtRep;Clermont Fd Pont A75 tr Cournon;;1150;45.7344;3.15306;
LF;LFLC/NE;PtRep;Clermont Fd Puy Guillaume;;950;45.9597;3.47417;
LF;LFLC/NB;PtRep;Clermont Fd Puy Silos Ennezat;;1080;45.9142;3.21694;
LF;LFHCLE/HC;PtRep;Clermont St J RP Pérignat;;1150;45.7467;3.13667;
LF;LFHCLE/HD;PtRep;Clermont St J Sortie Autor.;;1080;45.8056;3.15111;
LF;LFBG/S;PtRep;Cognac Archiac;;350;45.5236;-0.290833;
LF;LFBG/N;PtRep;Cognac Burie;;200;45.7722;-0.422778;
LF;LFBG/W2;PtRep;Cognac Chadenac;;150;45.5417;-0.4425;
LF;LFBG/E1;PtRep;Cognac Gensac La Pallue;;70;45.6508;-0.2525;
LF;LFBG/N1;PtRep;Cognac Pont de Merpins;;20;45.6856;-0.3975;
LF;LFBG/S2;PtRep;Cognac Roissac;;250;45.6206;-0.282222;
LF;LFBG/S1;PtRep;Cognac Saint Fort sur le Ne;;100;45.5769;-0.305278;
LF;LFBG/W1;PtRep;Cognac Salle d'Angles;;180;45.6178;-0.332778;
LF;LFBG/E2;PtRep;Cognac Segonzac;;200;45.6172;-0.218889;
LF;LFAD/NA;PtRep;Compiègne Carrefour;;300;49.4392;2.79361;
LF;LFAD/N;PtRep;Compiègne Inter rocade;;315;49.4497;2.78722;
LF;LFJD/W;PtRep;Corlier W Châtillon de C.;;1500;46.0447;5.45556;
LF;LFLJ/N;PtRep;Courchevel Bozel;;2900;45.4431;6.64722;
LF;LFLJ/C;PtRep;Courchevel Carrière Crête Gravelles;;6400;45.4011;6.64778;
LF;LFLJ/E;PtRep;Courchevel Croix Dt du Villard;;7500;45.42;6.67611;
LF;LFLJ/W;PtRep;Courchevel Moutiers;;1600;45.4847;6.52861;
LF;LFLJ/L;PtRep;Courchevel Pylône 7450;;7300;45.4086;6.61472;
LF;LFPC/NE;PtRep;Creil Ech. Compiègne Creil;;300;49.4022;2.69778;
LF;LFPC/SE;PtRep;Creil Inter TGV RN324;;300;49.2231;2.75056;
LF;LFTF/CN;PtRep;Cuers Carnoules;;700;43.2989;6.18306;
LF;LFTF/CO;PtRep;Cuers Collobrieres Carref 1nm W;;520;43.2342;6.28472;
LF;LFTF/MC;PtRep;Cuers Mont Caume (Supprimé);;2638;43.1872;5.90111;
LF;LFTF/VC;PtRep;Cuers Nord Valcros;;1000;43.1917;6.28028;
LF;LFTF/SL;PtRep;Cuers Pont Solliès;;300;43.1914;6.03528;
LF;LFTF/PV;PtRep;Cuers Puget Bretelle au NE;;650;43.2933;6.15278;
LF;LFTF/SA;PtRep;Cuers Ste Anastasie (Tr Sud Gymnase);;980;43.3394;6.12083;
LF;LFTF/TV;PtRep;Cuers Tourves (Ruines château);;850;43.4081;5.95194;
LF;LFBY/N;PtRep;Dax Antenne Bât blanc Ech. D824;;100;43.725;-1.10417;
LF;LFBY/BG;PtRep;Dax Bec de Gave;;;43.5467;-1.195;
LF;LFBY/S;PtRep;Dax Carref. D6 1,5 km NE St-Lon les M;;320;43.6244;-1.11583;
LF;LFBY/NEA;PtRep;Dax Ch. D'eau près Ch. De fer;;90;43.7572;-1.00944;
LF;LFBY/N2;PtRep;Dax Ch. D'eau Saubagnac;;50;43.6981;-1.07306;
LF;LFBY/NE;PtRep;Dax Croisement D413-Ligne HT 1,5 km W Lesgor;;150;43.8539;-0.918889;
LF;LFBY/W;PtRep;Dax Gare Péage;;50;43.6297;-1.39611;
LF;LFBY/NG;PtRep;Dax Gare Triage 3 Km SE Laluque;;200;43.8236;-0.966667;
LF;LFBY/SEA;PtRep;Dax Puyoo;;;43.5242;-0.909722;
LF;LFBY/E;PtRep;Dax Silo Inter Ch. De Fer Route Sud Mimbaste;;60;43.6428;-0.972222;
LF;LFBY/SE;PtRep;Dax W Orthez;;;43.49;-0.785556;
LF;LFPG/RH2;PtRep;De Gaulle Hél. Est Mitry le Neuf;;200;48.9558;2.61528;
LF;LFPG/N;PtRep;De Gaulle Hél. Inter A1 / VF;;325;49.0497;2.5475;
LF;LFPG/RH1;PtRep;De Gaulle Hél. Péage A1;;775;49.0867;2.55167;
LF;LFPG/S;PtRep;De Gaulle Hél. Rd Point;;255;48.9711;2.55167;
LF;LFPG/BD19;PtRep;De Gaulle Hél. Sud TWY B, Tr BD19;;360;49.0181;2.56111;
LF;LFPG/EM;PtRep;De Gaulle Hél. Vertic. Aire essai moteur;;350;49.0161;2.51861;
LF;LFPG/UN;PtRep;De Gaulle Hél. Vertic. Bassin rétention, Nd TWY U;;310;49.0003;2.55167;
LF;LFPG/P1;PtRep;De Gaulle Hél. Vertic. Sud T2, vert. TWY P1;;325;49.0025;2.6025;
LF;LFRG/NG;PtRep;Deauville Confluence Risle-Seine;;10;49.4392;0.372778;
LF;LFRG/SG;PtRep;Deauville Croisée Ligne HT;;100;49.2147;0.216111;
LF;LFRG/WG;PtRep;Deauville Dives-sur-Mer;;15;49.2856;-0.102222;
LF;LFRG/EG;PtRep;Deauville Lac pont Audemer;;10;49.3608;0.490556;
LF;LFRG/SD;PtRep;Deauville Lac Pont l'Evêque;;50;49.275;0.199167;
LF;LFRG/WD;PtRep;Deauville Mt Canisy;;350;49.3392;0.045;
LF;LFRG/ED;PtRep;Deauville Sud Pt Normandie;;10;49.4367;0.2725;
LF;LFSD/NB;PtRep;Dijon L. Aire de St-Julien;;800;47.4236;5.17083;
LF;LFSD/NA;PtRep;Dijon L. Antenne Curtil 2500 QNH;;1880;47.4472;4.91889;
LF;LFSD/SA;PtRep;Dijon L. Autor/Ligne HT;;630;47.0447;4.99667;
LF;LFSD/SB;PtRep;Dijon L. Coude Saône Chaugey;;600;47.085;5.24028;
LF;LFSD/N;PtRep;Dijon L. Etang La Crâ;;890;47.5181;5.15;
LF;LFSD/SR;PtRep;Dijon L. Étang Seurre;;580;46.9917;5.13611;
LF;LFSD/E1;PtRep;Dijon L. Fauverney;;700;47.2542;5.14222;
LF;LFSD/W;PtRep;Dijon L. Gare Triage Gevrey;;800;47.2517;5.00639;
LF;LFSD/E;PtRep;Dijon L. Genlis;;650;47.2386;5.21806;
LF;LFSD/SC;PtRep;Dijon L. SW Auxonne;;600;47.1833;5.36667;
LF;LFSD/NC;PtRep;Dijon L. ZI Mirebeau;;670;47.4042;5.325;
LF;LFRD/NBD;PtRep;Dinard Bge de la Rance;;1;48.6189;-2.02583;
LF;LFRD/NWD;PtRep;Dinard Cap Fréhel;;1;48.6878;-2.31917;
LF;LFRD/ND;PtRep;Dinard Ile de Cézembre;;20;48.6769;-2.07222;
LF;LFRD/LPD;PtRep;Dinard La Passagère;;1;48.6;-2.01278;
LF;LFRD/WJD;PtRep;Dinard Le Guildo;;50;48.5725;-2.21472;
LF;LFRD/SWD;PtRep;Dinard Plancoet;;50;48.5219;-2.23278;
LF;LFRD/ED;PtRep;Dinard Pont Saint Hubert;;60;48.5369;-1.97306;
LF;LFRD/NED;PtRep;Dinard Pte du Grouin;;1;48.7114;-1.84306;
LF;LFGJ/N;PtRep;Dôle Ech. Est de St-Seine en B.;;650;47.1219;5.38111;
LF;LFGJ/W;PtRep;Dôle Navilly (2 ponts);;580;46.94;5.15139;
LF;LFGJ/S;PtRep;Dôle Parcey;;650;47.0231;5.48444;
LF;LFGJ/SW;PtRep;Dôle Pierre de Bresse;;650;46.8828;5.25278;
LF;LFGJ/SE;PtRep;Dôle Tassenières;;790;46.9222;5.51389;
LF;LFQE/W1;PtRep;Etain Abaucourt Hautecourt;;760;49.1961;5.54028;
LF;LFQE/E;PtRep;Etain Bechamps;;720;49.2092;5.73972;
LF;LFQE/S;PtRep;Etain Etang Doncourt;;700;49.06;5.71194;
LF;LFQE/W;PtRep;Etain Foamex Ornel;;700;49.2319;5.60667;
LF;LFQE/E1;PtRep;Etain Pont sur l'Orne;;620;49.1611;5.82389;
LF;LFQE/N;PtRep;Etain Silo Spincourt;;760;49.3278;5.66833;
LF;LFOE/HS;PtRep;Evreux Breuil Station Ep.;;440;49.0142;1.24583;
LF;LFOE/N;PtRep;Evreux Caër;;200;49.0669;1.175;
LF;LFOE/WC;PtRep;Evreux Conches en Ouche;;515;48.95;0.95;
LF;LFOE/WD;PtRep;Evreux Damville Étang;;450;48.875;1.08333;
LF;LFOE/EW;PtRep;Evreux Ecardenville;;500;49.1261;0.870278;
LF;LFOE/EE;PtRep;Evreux Ech. Chaufour;;490;49.0219;1.4875;
LF;LFOE/S2;PtRep;Evreux Ech. N154/D833;;480;48.8875;1.16667;
LF;LFOE/EG;PtRep;Evreux Est Andelys Ch. Gaillard;;500;49.2378;1.40472;
LF;LFOE/EN;PtRep;Evreux Heudebouville;;450;49.1933;1.24861;
LF;LFOE/HN;PtRep;Evreux Huest;;430;49.0369;1.20417;
LF;LFOE/WS;PtRep;Evreux Jonction Ligne HT;;480;48.8472;1.21667;
LF;LFOE/WN;PtRep;Evreux Le Neubourg Hippodr.;;430;49.1361;0.902778;
LF;LFOE/EL;PtRep;Evreux Louviers (Péage);;80;49.2472;1.18056;
LF;LFOE/ES;PtRep;Evreux Nonancourt;;490;48.7789;1.19444;
LF;LFOE/S1;PtRep;Evreux Prey;;480;48.9617;1.21222;
LF;LFOE/ET;PtRep;Evreux Tourny Distillerie;;460;49.1778;1.54444;
LF;LFKF/SAF;PtRep;Figari Capo Di Feno;;1;41.3922;9.09861;
LF;LFKF/NWF;PtRep;Figari Giannuccio;;1600;41.5647;9.04139;
LF;LFKF/NF;PtRep;Figari Lac Ospédale (Est);;3100;41.6667;9.20833;
LF;LFKF/SF;PtRep;Figari Ph. De la Madonetta;;10;41.3869;9.14444;
LF;LFKF/EF;PtRep;Figari Punta di Rondinara;;1;41.4642;9.27722;
LF;LFKF/WAF;PtRep;Figari Tour d'Olmeto;;1;41.4753;8.98417;
LF;LFKF/WF;PtRep;Figari Tour de Roccapina;;100;41.4956;8.92889;
LF;LFBF/SEA;PtRep;Francazal Pinsaguel (PONTS);;500;43.5117;1.3875;
LF;LFBF/SE;PtRep;Francazal Venerque;;600;43.4333;1.4425;
LF;LFNA/S1;PtRep;Gap Barrage Curbans;;2000;44.4208;6.02028;
LF;LFNA/E1;PtRep;Gap Carrefour Est Tallard;;2100;44.4794;6.08333;
LF;LFNA/S;PtRep;Gap Pont Durance;;1800;44.3803;5.94556;
LF;LFNA/E;PtRep;Gap Sud Remollon;;2200;44.4678;6.16778;
LF;LFNA/N;PtRep;Gap Viaduc;;2900;44.5408;6.03528;
LF;LFLS/N;PtRep;Grenoble Champier circuit;;1800;45.4689;5.2975;
LF;LFLS/S;PtRep;Grenoble Lac Sud Roybon;;1800;45.2517;5.24639;
LF;LFLS/NE;PtRep;Grenoble Nord Lac de Paladru;;1620;45.4719;5.55583;
LF;LFLS/SE;PtRep;Grenoble Nord Voreppe;;630;45.3097;5.6175;
LF;LFLS/W;PtRep;Grenoble Rd Point Dev Beaurepaire;;900;45.3239;5.05361;
LF;LFLS/NW;PtRep;Grenoble Tunnel TGV;;1200;45.445;5.0325;
LF;LFGB/NH;PtRep;Habsheim Entr. Ech. A35/A36;;750;47.7792;7.40694;
LF;LFGB/WH;PtRep;Habsheim Entr. Tr. Sud Antenne;;1000;47.7306;7.35;
LF;LFGB/EH;PtRep;Habsheim Sortie Autoroute forêt;;750;47.7792;7.49167;
LF;LFGB/SH;PtRep;Habsheim Sortie Sud Bruebach;;1150;47.6944;7.35833;
LF;LFTH/WT;PtRep;Hyères 1 NM Sud Cap de l'Aigle;;1;43.1442;5.60444;
LF;LFTH/CL;PtRep;Hyères Cap de Leoube;;1;43.1103;6.29472;
LF;LFTH/ET;PtRep;Hyères Cap Lardier;;1;43.1614;6.61806;
LF;LFTH/PT;PtRep;Hyères Cap Sicie;;1;43.0417;5.81667;
LF;LFTH/DG;PtRep;Hyères Chap. de Gendarme;;800;43.1578;6.18361;
LF;LFTH/MC;PtRep;Hyères Mont Caume OBSOLETE;;2638;43.1872;5.90111;
LF;LFTH/MR;PtRep;Hyères Mont Redon;;500;43.1628;6.11583;
LF;LFTH/PC;PtRep;Hyères Pte de Carqueiranne;;1;43.0706;6.02167;
LF;LFTH/ST;PtRep;Hyères Pte Lequin Porquerolles;;1;43.0133;6.21639;
LF;LFTH/VC;PtRep;Hyères Valcros;;1;43.1917;6.28028;
LF;LFMI/SB;PtRep;Istres 0,8 nm Tr Sud Stes Maries DLM;;1;43.4397;4.42306;
LF;LFMI/SC;PtRep;Istres 1 Km W Cap Croisette;;1;43.2106;5.30194;
LF;LFMI/MLSC;PtRep;Istres 1 NM W Cap Croisette;;1;43.2106;5.30194;
LF;LFMI/NE;PtRep;Istres Autodrome Miramas;;150;43.5792;4.97694;
LF;LFMI/SW;PtRep;Istres Carro;;1;43.3244;5.04167;
LF;LFMI/S;PtRep;Istres Carry Le Rouet;;1;43.3244;5.17222;
LF;LFMI/N5;PtRep;Istres La Samatane carrefour;;150;43.6414;4.91667;
LF;LFMI/W2;PtRep;Istres Martigues;;10;43.4072;5.0575;
LF;LFMI/NW1;PtRep;Istres Mas Thibert;;10;43.5564;4.72056;
LF;LFMI/SG;PtRep;Istres Ouest Salin de Giraud;;1;43.4144;4.68972;
LF;LFMI/S3;PtRep;Istres Saint Mitre les Remparts;;200;43.4572;5.03222;
LF;LFMI/NW;PtRep;Istres St Hyppolyte Nd Ech + VF;;40;43.6458;4.74944;
LF;LFMI/W3;PtRep;Istres Tr Est le Radeau;;10;43.4817;4.8025;
LF;LFMI/N4;PtRep;Istres Tr le Gd Mas;;100;43.5861;4.88306;
LF;LFMI/SD;PtRep;Istres Travers Sud Port St Louis du Rh;;1;43.3753;4.82972;
LF;LFMI/S4;PtRep;Istres Vert Etg Levalduc;;50;43.4642;4.98583;
LF;LFHU/S;PtRep;L'Alpe d'Huez Col de Cluy;;6000;45.0717;6.105;
LF;LFHU/E;PtRep;L'Alpe d'Huez Col de Sarenne;;6100;45.0792;6.125;
LF;LFHU/W;PtRep;L'Alpe d'Huez La Paute;;2400;45.075;6.02222;
LF;LFHU/SE;PtRep;L'Alpe d'Huez Lac Chambon;;3500;45.0439;6.14167;
LF;LFTZ/ET;PtRep;La Mole Cap Lardier;;1;43.1614;6.61806;
LF;LFTZ/E;PtRep;La Mole Cavalaire;;1;43.1647;6.525;
LF;LFTZ/EM;PtRep;La Mole Ouest Digue SE Grimaud;;1;43.2639;6.59278;
LF;LFJE/S;PtRep;La Motte Nord Cornillon + Lac;;1800;44.4619;5.36528;
LF;LFJE/NW;PtRep;La Motte Tr Est Chalancon;;2800;44.5139;5.35056;
LF;LFBH/N;PtRep;La Rochelle Charron;;10;46.295;-1.10639;
LF;LFBH/S;PtRep;La Rochelle Hippodrome;;10;46.0756;-1.07667;
LF;LFBH/NA;PtRep;La Rochelle La Pelle;;30;46.2344;-1.15972;
LF;LFBH/EA;PtRep;La Rochelle Saint Xandre;;90;46.205;-1.10222;
LF;LFBH/E;PtRep;La Rochelle Usseau RP N137 N11;;60;46.2025;-1.02778;
LF;LFBH/SA;PtRep;La Rochelle Virages RN137;;10;46.1214;-1.11;
LF;LFRJ/NWL;PtRep;Landivisiau Kerdroc Croisement;;50;48.6103;-4.37889;
LF;LFRJ/SEL;PtRep;Landivisiau Lampaul Guimiliau;;300;48.4944;-4.04167;
LF;LFRJ/NEL;PtRep;Landivisiau Saint Pol de Léon;;100;48.6806;-3.99722;
LF;LFRJ/EL;PtRep;Landivisiau Saint Thegonnec;;350;48.5222;-3.94444;
LF;LFRJ/SWL;PtRep;Landivisiau Sud Ant. Pencran;;200;48.4167;-4.2;
LF;LFRO/S;PtRep;Lannion Ploulec'h;;300;48.7169;-3.50528;
LF;LFRO/OL;PtRep;Lannion Ploulec'h;;300;48.7169;-3.50528;
LF;LFRO/OP;PtRep;Lannion Rd Point;;50;48.7956;-3.44306;
LF;LFPB/E1;PtRep;Le Bourget Ch. Eau Montfermeil;;380;48.8986;2.55722;
LF;LFPB/E2;PtRep;Le Bourget Inter A3 E15;;170;48.9322;2.48083;
LF;LFPB/W2;PtRep;Le Bourget Jonction N1 N16;;240;48.9742;2.36583;
LF;LFPB/W1;PtRep;Le Bourget Patte d'Oie Herblay;;240;49.0014;2.185;
LF;LFMC/NL;PtRep;Le Luc - Lorgues (D10-D48/Hte Tens.);;600;43.4667;6.38833;
LF;LFMC/NC;PtRep;Le Luc Centr. Electr. Entraygues;;300;43.4208;6.38333;
LF;LFMC/UB;PtRep;Le Luc Décheterie (Sortie);;500;43.4131;6.34889;
LF;LFMC/DG;PtRep;Le Luc Draguignan (Pylône);;1800;43.5583;6.46139;
LF;LFMC/SW;PtRep;Le Luc Gonfaron (Pont);;600;43.3181;6.29861;
LF;LFMC/SE;PtRep;Le Luc La Garde Freynet (Tour);;1200;43.3167;6.47222;
LF;LFMC/VC;PtRep;Le Luc Le Cannet;;900;43.1917;6.28028;
LF;LFMC/NE;PtRep;Le Luc Les Arcs (Pont Echangeur);;180;43.45;6.4925;
LF;LFMC/MY;PtRep;Le Luc Montmeyan (Tr N Lycée);;1600;43.6464;6.06361;
LF;LFMC/NW;PtRep;Le Luc Pt d'Argens;;320;43.4667;6.3125;
LF;LFMC/PL;PtRep;Le Luc Puyloubier (Château);;1100;43.5222;5.70306;
LF;LFMC/BJ;PtRep;Le Luc Rd Pt Barjols;;1000;43.5606;6.01028;
LF;LFMC/SA;PtRep;Le Luc Sainte Anastasie (tr Sud Gymn.);;1000;43.3394;6.12083;
LF;LFMC/TV;PtRep;Le Luc Tourves (ruine Ch.);;1000;43.4081;5.91861;
LF;LFAT/E;PtRep;Le Touquet Etangs Marles;;30;50.4389;1.83944;
LF;LFAT/NE;PtRep;Le Touquet Inter VF/Rte Sud SAMER;;200;50.6333;1.74778;
LF;LFAT/EA;PtRep;Le Touquet Ligne HT Canche;;30;50.4931;1.71389;
LF;LFAT/NB;PtRep;Le Touquet Nord Plage Ste Cécile;;1;50.5792;1.57722;
LF;LFAT/N;PtRep;Le Touquet Phare Boulogne;;1;50.7403;1.5675;
LF;LFAT/NA;PtRep;Le Touquet Plage de Hardelot;;1;50.6347;1.57694;
LF;LFAT/S;PtRep;Le Touquet Rang du Fliers;;50;50.4194;1.65;
LF;LFYS/SW;PtRep;Léocadie Chapelle de Nahuja;;4300;42.425;1.99361;
LF;LFYS/E;PtRep;Léocadie Côte 1 557 m (ERR/LIO);;5000;42.4456;2.04889;
LF;LFYS/N;PtRep;Léocadie Pont/VF;;4700;42.4708;2.03361;
LF;LFYS/W;PtRep;Léocadie Rd-Pt D68/630;;3820;42.4508;1.955;
LF;LFOMSG;PtRep;Lessay Saint Germain WNW AD;;40;49.2417;-1.63306;
LF;LFQQ/SA;PtRep;Lille Ch. Rd Point Nd GOLF;;130;50.5183;3.13361;
LF;LFQQ/SE;PtRep;Lille Ech. A23 D938;;150;50.4711;3.22778;
LF;LFQQ/N;PtRep;Lille Echangeur A25 TGV;;70;50.6453;2.92917;
LF;LFQQ/SW;PtRep;Lille Pt A1 TGV Canal Deule;;90;50.4572;2.97139;
LF;LFQQ/W;PtRep;Lille SNCF Canal sud La Bassée;;80;50.5228;2.79306;
LF;LFQQ/NG;PtRep;Lille Vert. Golf (Attente);;150;50.6031;3.11333;
LF;LFBL/SA;PtRep;Limoges Carrière;;900;45.7667;1.23944;
LF;LFBL/WA;PtRep;Limoges Carrière Nd Vienne;;950;45.8667;1.08333;
LF;LFBL/EA;PtRep;Limoges Echangeur;;1100;45.895;1.29389;
LF;LFBL/NW;PtRep;Limoges Oradour Glane;;950;45.9333;1.03333;
LF;LFBL/E;PtRep;Limoges Saint Priest Taurion;;850;45.8833;1.4;
LF;LFBL/W;PtRep;Limoges Saint Victurnien;;750;45.8833;1.01667;
LF;LFBL/S;PtRep;Limoges Solignac;;800;45.7556;1.27778;
LF;LFPL/E;PtRep;Lognes tr. N. Ferrieres;;375;48.83;2.70611;
LF;LFRH/EL;PtRep;Lorient Anse Port Louis;;1;47.7194;-3.34722;
LF;LFRH/A;PtRep;Lorient Auray Echangeur;;120;47.6828;-3.02333;
LF;LFRH/NL;PtRep;Lorient Carref. Saint Séverin;;250;47.83;-3.3375;
LF;LFRH/N;PtRep;Lorient Carrefour W. Plouay;;220;47.9167;-3.34722;
LF;LFRH/WL;PtRep;Lorient Clohars Carnoet;;200;47.8;-3.58333;
LF;LFRH/NG;PtRep;Lorient Ech Guidel N165;;150;47.8058;-3.45917;
LF;LFRH/NE;PtRep;Lorient Ech. N24, W Baud;;120;47.8692;-3.02944;
LF;LFRH/W;PtRep;Lorient Pont Aven;;110;47.8583;-3.75;
LF;LFRH/E;PtRep;Lorient Pont Lorois;;1;47.6764;-3.2;
LF;LFRH/S;PtRep;Lorient Port Tudy (Groix);;1;47.6444;-3.45;
LF;LFRH/NW;PtRep;Lorient Pt VF SE Quimperlé;;40;47.8653;-3.54167;
LF;LFRH/SL;PtRep;Lorient Pte du Talut;;10;47.6972;-3.45;
LF;LFSX/WN;PtRep;Luxeuil Bains les Bains;;1100;48.0028;6.26667;
LF;LFSX/S1;PtRep;Luxeuil Brotte;;900;47.7564;6.34694;
LF;LFSX/W;PtRep;Luxeuil Faverney;;720;47.7667;6.10417;
LF;LFSX/SE;PtRep;Luxeuil Frotey les Lure;;1050;47.6556;6.55417;
LF;LFSX/N1;PtRep;Luxeuil Nd Luxeuil Ville;;1100;47.8297;6.37722;
LF;LFSX/SP;PtRep;Luxeuil Pomoy;;1050;47.6639;6.35278;
LF;LFSX/WS;PtRep;Luxeuil Port sur Saône;;800;47.6889;6.04722;
LF;LFSX/S;PtRep;Luxeuil Saulx;;1000;47.6944;6.28056;
LF;LFSX/N;PtRep;Luxeuil W Fougerolles;;1000;47.8875;6.3875;
LF;LFLY/NW;PtRep;Lyon Bron Barrage de Couzon;;550;45.845;4.83333;
LF;LFLY/S;PtRep;Lyon Bron Echg Chasse;;600;45.5897;4.79667;
LF;LFLY/N;PtRep;Lyon Bron G.Triage St Germain;;600;45.8919;4.80111;
LF;LFLY/SA;PtRep;Lyon Bron Gare Triage FEYZIN;;530;45.6497;4.84056;
LF;LFLY/NA;PtRep;Lyon Bron Inter A6 TGV N83;;900;45.8569;4.91333;
LF;LFLY/TW;PtRep;Lyon Bron Rd Pt Ouest Satolas;;785;45.7169;5.07056;
LF;LFLY/MS;PtRep;Lyon Bron Rd Pt SE Genas;;750;45.7233;5.02333;
LF;LFLL/NW;PtRep;Lyon St-Ex Barrage Crouzon;;550;45.845;4.83333;
LF;LFLL/S;PtRep;Lyon St-Ex Ech Chasse;;600;45.5897;4.79667;
LF;LFLL/N;PtRep;Lyon St-Ex Gare triage Saint G;;600;45.8919;4.80111;
LF;LFLL/NA;PtRep;Lyon St-Ex Inter A46 TGV N83;;900;45.8569;4.91333;
LF;LFLL/TW;PtRep;Lyon St-Ex Rd Pt de l'Europe;;790;45.7169;5.07056;
LF;LFLL/MS;PtRep;Lyon St-Ex Rd Pt SE Genas;;750;45.7233;5.02333;
LF;LFLL/EA;PtRep;Lyon St-Ex Rd Pt W Cremieu;;700;45.7231;5.22972;
LF;LFLL/MC;PtRep;Lyon St-Ex Stade Chavagneux;;700;45.7292;5.15389;
LF;LFLL/TE;PtRep;Lyon St-Ex Tr. Est Saugnieu;;830;45.725;5.115;
LF;LFLL/SA;PtRep;Lyon St-Gare Triage FEYZIN;;530;45.6497;4.84056;
LF;LFML/SC;PtRep;Marseille 1 NM W Cap Croisette;;1;43.2106;5.30194;
LF;LFML/EB;PtRep;Marseille Carref Est Pennes Mir;;520;43.4106;5.32472;
LF;LFML/CB;PtRep;Marseille Ch. De Cabanne;;1500;43.6269;5.40472;
LF;LFML/EA;PtRep;Marseille Ech Sud Cabriès;;720;43.4314;5.38444;
LF;LFML/SA;PtRep;Marseille Est Ch les Martigues;;100;43.3742;5.18806;
LF;LFML/SB;PtRep;Marseille Étang/Canal;;1;43.4075;5.18472;
LF;LFML/NB;PtRep;Marseille Radar Vitrolles;;660;43.4714;5.24222;
LF;LFML/LP;PtRep;Marseille Saint Cannat-La Pile;;800;43.6164;5.315;
LF;LFML/SW;PtRep;Marseille Sud Carro (CTR Istres);;1;43.3244;5.04167;
LF;LFML/S;PtRep;Marseille Sud Carry Le Rouet;;1;43.3244;5.17222;
LF;LFML/E;PtRep;Marseille Terril SW Gardanne;;1200;43.44;5.45167;
LF;LFML/NA;PtRep;Marseille Ventabren A8/D19;;350;43.555;5.28389;
LF;LFHM/N;PtRep;Megeve Nov 5 600 AMSL;;5600;45.8444;6.62083;
LF;LFPM/B;PtRep;Melun A6 RN191 + VF;;280;48.5714;2.46889;
LF;LFPM/SM;PtRep;Melun Chartrettes Nd Seine;;250;48.4867;2.70194;
LF;LFPM/N;PtRep;Melun TGV Triangle;;350;48.6942;2.72056;
LF;LFKX/MOU;PtRep;Meribel Moutiers;;1700;45.4833;6.53333;
LF;LFQT/N;PtRep;Merville Ant 2nm sud Steenv;;200;50.7753;2.56389;
LF;LFQT/EA;PtRep;Merville Ch. d'eau Est Estaires;;50;50.6408;2.745;
LF;LFQT/NA;PtRep;Merville Ch. La Motte;;90;50.6833;2.57083;
LF;LFQT/S;PtRep;Merville Ech. Liévin;;250;50.4353;2.70417;
LF;LFQT/NE;PtRep;Merville Ech. W Armentières;;50;50.6839;2.84333;
LF;LFQT/EB;PtRep;Merville Mémorial Inter RD171/RD947;;60;50.5753;2.775;
LF;LFQT/SA;PtRep;Merville Rd-Pt NE Béthune;;70;50.5411;2.65056;
LF;LFQT/WA;PtRep;Merville RD19/Lys;;50;50.6264;2.55111;
LF;LFQT/W;PtRep;Merville Silos Est Aire sur La Lys;;70;50.6461;2.40806;
LF;LFSF/NW;PtRep;Metz Fr Ars s Moselle Etang;;600;49.0781;6.07417;
LF;LFSF/N2;PtRep;Metz Fr Hombourg Budange;;700;49.2958;6.34306;
LF;LFSF/W;PtRep;Metz Fr Mars La Tour;;800;49.0989;5.88889;
LF;LFSF/NE;PtRep;Metz Fr Peltre Rte + VF;;620;49.0758;6.22333;
LF;LFSF/SW;PtRep;Metz Fr Pt à Mousson Zone;;600;48.8836;6.06139;
LF;LFSF/M;PtRep;Metz Fr Verny;;650;49.0067;6.20556;
LF;LFSF/N1;PtRep;Metz Fr Vigy EdF;;750;49.1986;6.27917;
LF;LFSF/MLM;PtRep;Metz Maizieres les Metz Stade;;550;49.2153;6.16389;
LF;LFJL/NW;PtRep;Metz NL Ars Sur Moselle;;590;49.0781;6.07417;
LF;LFJL/S;PtRep;Metz NL Champenoux;;780;48.7417;6.35139;
LF;LFJL/SE;PtRep;Metz NL Fresnes en Saulnois;;1000;48.8472;6.45417;
LF;LFJL/E;PtRep;Metz NL Han sur Nied;;750;48.99;6.43528;
LF;LFJL/W;PtRep;Metz NL Inter A31;;750;49.0364;6.27861;
LF;LFJL/NE;PtRep;Metz NL Peltre;;650;49.0758;6.22333;
LF;LFJL/SW;PtRep;Metz NL Pont à Mousson Zone;;600;48.8836;6.06139;
LF;LFJL/N1;PtRep;Metz NL Poste EDF Vigy;;740;49.1986;6.27917;
LF;LFJL/M;PtRep;Metz NL Verny;;700;49.0067;6.20556;
LF;LFSF/SMC;PtRep;Metz Sainte Marie Aux Chenes;;900;49.1931;6;
LF;LFBM/N;PtRep;Mont de Marsan Cère;;220;43.9928;-0.535278;
LF;LFBM/NW;PtRep;Mont de Marsan Garein;;290;44.0461;-0.650278;
LF;LFBM/E;PtRep;Mont de Marsan Le Caloy;;320;43.9417;-0.4075;
LF;LFBM/SW1;PtRep;Mont de Marsan Meilhan;;210;43.8639;-0.708333;
LF;LFBM/SE;PtRep;Mont de Marsan Rocade Est;;200;43.8894;-0.444444;
LF;LFBM/NE;PtRep;Mont de Marsan Roquefort;;230;44.0342;-0.323333;
LF;LFBM/SE1;PtRep;Mont de Marsan St-Gein;;310;43.8358;-0.300278;
LF;LFBM/SW;PtRep;Mont de Marsan St-Perdon;;270;43.8656;-0.590556;
LF;LFLT/S;PtRep;Montluçon D. Étang de Sault;;800;46.3325;2.55972;
LF;LFLT/N;PtRep;Montluçon D. Piste Dunlop;;650;46.3831;2.58667;
LF;LFMT/SW;PtRep;Montpellier Cath. Maguelone;;10;43.5125;3.88361;
LF;LFMT/NE;PtRep;Montpellier Ch d'eau Castries;;250;43.68;3.98083;
LF;LFMT/NC;PtRep;Montpellier Ch d'eau Mauguio + Ech.;;50;43.6253;4.00389;
LF;LFMT/NW;PtRep;Montpellier Ech. Sud St-Gely + CC;;430;43.6742;3.81944;
LF;LFMT/ER;PtRep;Montpellier Echangeur D62/D61 N Gde M;;10;43.5786;4.10083;
LF;LFMT/N;PtRep;Montpellier Nord Sommières;;150;43.7914;4.09028;
LF;LFMT/W;PtRep;Montpellier Péage Saint Jean de Vedas;;110;43.5622;3.83056;
LF;LFMT/SF;PtRep;Montpellier Pont entre étangs;;5;43.4661;3.81528;
LF;LFMT/AM;PtRep;Montpellier Remparts Aigues M;;10;43.5636;4.19278;
LF;LFMT/ES;PtRep;Montpellier Sud Ph Espiguette;;1;43.4828;4.14194;
LF;LFBR/SA;PtRep;Muret Boucle de l'Ariège;;600;43.4;1.44167;
LF;LFBR/SN;PtRep;Muret Noé;;650;43.3583;1.275;
LF;LFSO/N;PtRep;Nancy Ochey Dieulouard;;650;48.8375;6.06889;
LF;LFSO/E;PtRep;Nancy Ochey Frouard;;1000;48.7639;6.13056;
LF;LFSO/S;PtRep;Nancy Ochey Toul;;700;48.6833;5.9;
LF;LFSO/W;PtRep;Nancy Ochey Void Vacon;;800;48.6833;5.61667;
LF;LFRS/W3;PtRep;Nantes Bourgneuf en R.;;30;47.0433;-1.9525;
LF;LFRS/NE;PtRep;Nantes Ch. Eau La Haye F.;;200;47.1522;-1.39056;
LF;LFRS/E2;PtRep;Nantes Clisson;;120;47.0839;-1.26889;
LF;LFRS/W2;PtRep;Nantes Cordemais;;50;47.2917;-1.87806;
LF;LFRS/W;PtRep;Nantes Ecluse Canal Martinière;;20;47.2072;-1.78639;
LF;LFRS/W1;PtRep;Nantes Nort sur Erdre;;50;47.4406;-1.5;
LF;LFRS/E;PtRep;Nantes Péage Rd-Pt Butay;;160;47.0964;-1.44917;
LF;LFRS/E1;PtRep;Nantes Pt de Varades;;40;47.3722;-1.02111;
LF;LFRS/SW;PtRep;Nantes Sainte Pazanne;;50;47.1078;-1.78861;
LF;LFRS/NW;PtRep;Nantes Sautron (H.T.);;200;47.2572;-1.68528;
LF;LFRS/E3;PtRep;Nantes St Denis lès Lucs;;250;46.8381;-1.41722;
LF;LFRS/W4;PtRep;Nantes Ste Pazanne;;40;47.1078;-1.78861;
LF;LFMN/SB;PtRep;Nice 1 nm Sud Cap Gros;;1;43.5353;7.145;
LF;LFMN/SA;PtRep;Nice 1 nm sud Ile Saint Honorat;;1;43.4889;7.04694;
LF;LFMN/E;PtRep;Nice 1,5 NM Sud Port Menton;;1;43.75;7.51111;
LF;LFMN/NA;PtRep;Nice Bge Nord Var;;200;43.75;7.18889;
LF;LFMN/WA;PtRep;Nice Ch. De Cagnes;;150;43.6669;7.14556;
LF;LFMN/TE;PtRep;Nice en Mer Pt TE;;1;43.6386;7.3025;
LF;LFMN/TS;PtRep;Nice en Mer Pt TS;;1;43.5836;7.22;
LF;LFMN/EW;PtRep;Nice Golf Sud Opio;;850;43.66;6.98;
LF;LFMN/NB;PtRep;Nice Péage Saint Isidore;;100;43.7;7.18806;
LF;LFMN/WN;PtRep;Nice Pt autoroute sur Var;;50;43.6683;7.19722;
LF;LFMN/EC;PtRep;Nice Sud Musée Océanogr.;;1;43.7014;7.42694;
LF;LFMN/EA;PtRep;Nice Tr. Pte du Colombier;;1;43.6547;7.34556;
LF;LFME/AS;PtRep;Nîmes C. Aimargues;;20;43.6819;4.21389;
LF;LFME/AL;PtRep;Nîmes C. Arles W Rhône;;20;43.6664;4.5875;
LF;LFME/BC;PtRep;Nîmes C. Beaucaire ;;50;43.8303;4.63333;
LF;LFME/CA;PtRep;Nîmes C. Calvisson;;150;43.7794;4.19472;
LF;LFME/SG;PtRep;Nîmes C. Écluse;;15;43.6442;4.43222;
LF;LFME/P;PtRep;Nîmes C. Péage;;15;43.6903;4.54444;
LF;LFME/SN;PtRep;Nîmes C. Sanilhac-Sagriès;;400;43.9531;4.42389;
LF;LFTW/BG;PtRep;Nîmes G Bellegarde (Hél.);;200;43.7533;4.51444;
LF;LFTW/ET;PtRep;Nîmes G Canal W Etg du Charnier;;1;43.6192;4.25944;
LF;LFTW/BC;PtRep;Nîmes G Nord Beaucaire ;;50;43.8303;4.63333;
LF;LFTW/RD;PtRep;Nîmes G Redessan (Hél.);;200;43.8314;4.49722;
LF;LFTW/CZ;PtRep;Nîmes G Saint Cesaire (Hél.);;300;43.8153;4.32861;
LF;LFTW/CA;PtRep;Nîmes G Sud Calvisson;;150;43.7794;4.19472;
LF;LFTW/UH;PtRep;Nîmes G Uchaud (Hél.);;100;43.7561;4.2675;
LF;LFTW/AL;PtRep;Nîmes G West Arles;;15;43.6664;4.5875;
LF;LFTW/AS;PtRep;Nîmes G. Aimargues;;20;43.6819;4.21389;
LF;LFTW/SN;PtRep;Nîmes G. Sanilhac-Sagriès;;400;43.9531;4.42389;
LF;LFMO/NW;PtRep;Orange Bourg St-Andréol;;300;44.3736;4.63972;
LF;LFMO/WA;PtRep;Orange Caderousse;;100;44.1042;4.75972;
LF;LFMO/SE;PtRep;Orange Carpentras;;300;44.0669;5.03722;
LF;LFMO/WB;PtRep;Orange Mondragon;;250;44.2419;4.71194;
LF;LFMO/SW;PtRep;Orange Nd Roquemaure;;100;44.0694;4.76583;
LF;LFMO/E;PtRep;Orange Plan de Dieu;;310;44.1789;4.91889;
LF;LFMO/NE;PtRep;Orange Tulette;;470;44.2839;4.92694;
LF;LFOJ/S;PtRep;Orleans Br Aire Repos A10;;370;47.8194;1.64167;
LF;LFOJ/SE;PtRep;Orleans Br Ech. A10 A71;;370;47.9028;1.84722;
LF;LFOJ/N;PtRep;Orleans Br Etang Nd Artenay;;400;48.1019;1.88333;
LF;LFOJ/E;PtRep;Orleans Br Saran Echang.;;400;47.95;1.84889;
LF;LFOJ/NW;PtRep;Orleans Br ZI Patay;;400;48.0472;1.70417;
LF;LFPO/BCR;PtRep;Paris Orly Brie Comte Robert;;300;48.7;2.60306;
LF;LFPO/VAI;PtRep;Paris Orly Vaires;;150;48.875;2.64306;
LF;LFBP/S;PtRep;Pau Ch. d'eau;;950;43.2986;-0.486667;
LF;LFBP/N;PtRep;Pau Ch. Eau à Lème;;800;43.4947;-0.37;
LF;LFBP/NE;PtRep;Pau Inter RN134 D944;;800;43.46;-0.322778;
LF;LFBP/SW;PtRep;Pau Moneim;;500;43.3211;-0.577778;
LF;LFBP/NA;PtRep;Pau Navaillès Angos ch. eau;;950;43.42;-0.346111;
LF;LFBP/SA;PtRep;Pau Rd Pt RN117 D509 Silos;;500;43.3367;-0.460556;
LF;LFBP/SE;PtRep;Pau Rd Pt RN134 D100 Jurançon;;650;43.2789;-0.387778;
LF;LFBP/W;PtRep;Pau West Artix A64 H.T.;;450;43.415;-0.575556;
LF;LFMP/MS;PtRep;Perpignan Ech. N612/N9 Mas Sab.;;220;42.6083;2.86056;
LF;LFMP/E;PtRep;Perpignan Embouch. Agly;;1;42.7789;3.03861;
LF;LFMP/SE;PtRep;Perpignan Entrée Port Canet;;1;42.7031;3.0375;
LF;LFMP/PC;PtRep;Perpignan Entrée Port St-Cyprien;;1;42.6197;3.03917;
LF;LFMP/NL;PtRep;Perpignan Ph. Cap Leucate;;1;42.9103;3.05583;
LF;LFMP/WS;PtRep;Perpignan Plan d'eau Bosigues;;220;42.6819;2.75917;
LF;LFMP/EA;PtRep;Perpignan Pont sur l'Agly;;20;42.7639;2.98694;
LF;LFMP/NF;PtRep;Perpignan Prequ'ile Port Fitou;;1;42.8767;3.05583;
LF;LFIP/E;PtRep;Peyresourde  (Col de );;5400;42.8028;0.465278;
LF;LFIP/N1;PtRep;Peyresourde Arreau;;2500;42.9014;0.370833;
LF;LFIP/S;PtRep;Peyresourde Centr. Electr.;;3200;42.7861;0.411111;
LF;LFIP/N2;PtRep;Peyresourde N Lac Genos;;3100;42.8119;0.407778;
LF;LFQP/SW;PtRep;Phalsbourg 2 Rd-Point Nd 3 Fontaines;;1100;48.69;7.13417;
LF;LFQP/DN;PtRep;Phalsbourg Ant. De Donon;;3150;48.51;7.16139;
LF;LFQP/NE;PtRep;Phalsbourg Centrale voltaïque Ingviller;;700;48.8667;7.45722;
LF;LFQP/W;PtRep;Phalsbourg Crois. LGV/D43 Sud Sarraltroff;;800;48.7647;7.06694;
LF;LFQP/BL;PtRep;Phalsbourg Ech. De Blâmont;;950;48.6075;6.86139;
LF;LFQP/DZ;PtRep;Phalsbourg Ech. De Ley;;730;48.7406;6.66417;
LF;LFQP/N;PtRep;Phalsbourg Ech. W Drulingen;;900;48.8633;7.18111;
LF;LFQP/E;PtRep;Phalsbourg Hangar prox. Rd Pt Sud Dossenheim;;650;48.8003;7.40444;
LF;LFQP/S;PtRep;Phalsbourg La Hoube;;2000;48.6522;7.27083;
LF;LFMN/PF;PtRep;Phare de la Fourmigue;;1;43.5394;7.67778;
LF;LFCH/SD;PtRep;Plage du Petit Nice;;200;44.5731;-1.22333;
LF;LFBI/S;PtRep;Poitiers A10 Réservoir;;500;46.4486;0.269444;
LF;LFBI/EA;PtRep;Poitiers Chem orange Usine;;380;46.5917;0.394444;
LF;LFBI/S1;PtRep;Poitiers Crois. Ch de Fer SSW St Benoît;;260;46.5467;0.335556;
LF;LFBI/N;PtRep;Poitiers Rd Point Nord Neuville de P.;;360;46.6947;0.251944;
LF;LFBI/WA;PtRep;Poitiers Rd Pt Moulinet;;350;46.6286;0.264167;
LF;LFBI/E;PtRep;Poitiers StJulien Ars VF/Rte;;380;46.5589;0.500556;
LF;LFBI/W;PtRep;Poitiers Vouillé rte rivière;;400;46.6467;0.170278;
LF;LFPT/NW;PtRep;Pontoise Ch. Eau Bercagny;;321;49.1475;1.89917;
LF;LFPT/E;PtRep;Pontoise Énnery;;320;49.0783;2.10722;
LF;LFPT/SW;PtRep;Pontoise Sud Rés. Gargenville;;90;48.9706;1.79611;
LF;LFRQ/NW;PtRep;Quimper Guengat;;400;48.0431;-4.20417;
LF;LFRQ/N;PtRep;Quimper Inter D765 D784;;300;48.0044;-4.16111;
LF;LFRQ/S;PtRep;Quimper Plomelin intersect. 4 voies;;150;47.9397;-4.17806;
LF;LFRQ/SW;PtRep;Quimper Pont-l'Abbé;;50;47.8697;-4.22194;
LF;LFRQ/W;PtRep;Quimper Pouldreuzic;;200;47.9556;-4.35833;
LF;LFRQ/SE;PtRep;Quimper Pt de Cornouaille Bénodet;;20;47.8875;-4.11806;
LF;LFRQ/NE;PtRep;Quimper Ty Sanguer;;450;48.04;-4.06917;
LF;LFRN/NE;PtRep;Rennes Betton;;220;48.1856;-1.65028;
LF;LFRN/S;PtRep;Rennes Bruz;;150;48.0231;-1.74389;
LF;LFRN/E;PtRep;Rennes Cesson-Sévigné Echangeur;;180;48.1167;-1.56667;
LF;LFRN/SE;PtRep;Rennes Corps Nuds;;250;47.9819;-1.58444;
LF;LFRN/SW;PtRep;Rennes Guichen;;300;47.9697;-1.79528;
LF;LFRN/NW;PtRep;Rennes Saint Gilles Ech N12;;200;48.1578;-1.83083;
LF;LFRN/N;PtRep;Rennes Vezin le Coquet;;200;48.125;-1.75833;
LF;LFHREN/ER;PtRep;Renneville Hél. Antenne;;750;43.3681;1.7475;
LF;LFHREN/NA;PtRep;Renneville Hél. Canal W Aqueduc Voutes;;600;43.3847;1.70472;
LF;LFHREN/SA;PtRep;Renneville Hél. D25/CV de la Guirande;;630;43.3594;1.72917;
LF;LFHREN/WR;PtRep;Renneville Hél. Est Lac;;810;43.3489;1.65306;
LF;LFHREN/SR;PtRep;Renneville Hél. Lestrade;;760;43.3306;1.79083;
LF;LFHREN/WA;PtRep;Renneville Hél. Oaransou 400 m Sud Le Breton;;710;43.3567;1.71;
LF;LFHREN/NR;PtRep;Renneville Hél. Péage Villefranche;;570;43.3989;1.69694;
LF;LFHREN/SB;PtRep;Renneville Hél. Sierra Bravo;;600;43.3647;1.72778;
LF;LFHREN/WB;PtRep;Renneville Hél. W Ferme En Bayssie;;700;43.3703;1.6875;
LF;LFCR/S;PtRep;Rodez Baraqueville près Lac;;2600;44.2778;2.42778;
LF;LFCR/N;PtRep;Rodez Bozouls;;1850;44.4717;2.72278;
LF;LFCR/E;PtRep;Rodez Montrozier;;1900;44.4075;2.74194;
LF;LFCR/SA;PtRep;Rodez Moyrazés;;2400;44.3444;2.44111;
LF;LFCR/W;PtRep;Rodez Tr Nd Prévinquières;;1500;44.3761;2.23611;
LF;LFCR/EA;PtRep;Rodez Tr Nd Sébazac Est VF;;2000;44.4081;2.60417;
LF;LFOP/NW;PtRep;Rouen Barentin;;350;49.5483;0.953611;
LF;LFOP/NL;PtRep;Rouen Ech. Autor. Neufchâtel;;550;49.7578;1.48694;
LF;LFOP/S;PtRep;Rouen Ecluses Etg de Poses;;30;49.3167;1.24722;
LF;LFOP/E;PtRep;Rouen Fleury sur And.;;120;49.3586;1.35889;
LF;LFOP/N;PtRep;Rouen Isneauville;;510;49.4928;1.15944;
LF;LFOP/W;PtRep;Rouen Viaduc Orival;;50;49.31;0.998889;
LF;LFHSTC/SE;PtRep;Saint Chamond Hél.Sierra Echo VF;;1255;45.4719;4.51611;
LF;LFMH/W;PtRep;Saint Etienne Butte Saint Romain le Puy;;1500;45.5575;4.12583;
LF;LFMH/N;PtRep;Saint Etienne Hippodr. Feurs;;1150;45.7394;4.22139;
LF;LFMH/NA;PtRep;Saint Etienne Int. Montrond les Bains;;1200;45.6442;4.23139;
LF;LFMH/S;PtRep;Saint Etienne Intersec. Firminy;;1600;45.3928;4.29167;
LF;LFMH/SE;PtRep;Saint Etienne Saint Chamond Gare;;1300;45.4731;4.51833;
LF;LFMH/NE;PtRep;Saint Etienne Saint Symphorien Eglise;;2000;45.6325;4.45389;
LF;LFRZ/N;PtRep;Saint Nazaire Ech. Pontchâteau;;70;47.4464;-2.09028;
LF;LFRZ/NW;PtRep;Saint Nazaire Herbignac;;50;47.4497;-2.31694;
LF;LFRZ/W1;PtRep;Saint Nazaire Lac Immaculée;;30;47.2856;-2.25111;
LF;LFRZ/E;PtRep;Saint Nazaire Paimboeuf;;30;47.2817;-2.02833;
LF;LFRZ/W;PtRep;Saint Nazaire Pte de Chemoulin;;1;47.2342;-2.29861;
LF;LFLN/E;PtRep;Saint Yan Charolles;;930;46.4339;4.275;
LF;LFLN/NE;PtRep;Saint Yan Génelard;;890;46.5819;4.23944;
LF;LFLN/S;PtRep;Saint Yan Iguerande;;870;46.2031;4.07778;
LF;LFLN/W;PtRep;Saint Yan Le Donjon;;970;46.3506;3.79389;
LF;LFLN/WA;PtRep;Saint Yan Le Pin Ch Eau SE;;920;46.4069;3.90083;
LF;LFLN/EA;PtRep;Saint Yan Paray Le M Embr. VF;;810;46.44;4.14083;
LF;LFLN/NW;PtRep;Saint Yan Pierrefitte s Loire;;740;46.5067;3.81611;
LF;LFLN/SA;PtRep;Saint Yan W Avrilly;;940;46.3347;3.96278;
LF;LFMY/ME;PtRep;Salon Barrage SW Mallemort;;360;43.7367;5.19167;
LF;LFMY/W;PtRep;Salon Circuit Michelin;;230;43.6286;5.04056;
LF;LFMY/CH;PtRep;Salon Étang Nd Charleval;;450;43.7317;5.24167;
LF;LFMY/LR;PtRep;Salon La Roque Croisement;;500;43.7222;5.27528;
LF;LFMY/LA;PtRep;Salon Lamanon;;500;43.7006;5.10167;
LF;LFMY/EG;PtRep;Salon Nord Eyguières;;450;43.7197;5.02444;
LF;LFMY/PS;PtRep;Salon Péage Sénas;;320;43.7406;5.09111;
LF;LFMY/CV;PtRep;Salon Pt TGV Cavaillon;;230;43.8108;5.04222;
LF;LFMY/SW;PtRep;Salon SE Cornillon;;380;43.555;5.08833;
LF;LFMY/N;PtRep;Salon/Saint-Cannat;;710;43.6208;5.29694;
LF;LFPN/S;PtRep;Sierra de Toussus;;530;48.7097;2.11028;
LF;LFKS/AS;PtRep;Solenzara Fautea;;1;41.7164;9.40194;
LF;LFKS/AW;PtRep;Solenzara Ghisonaccia AD;;160;42.0356;9.40028;
LF;LFSI/N1;PtRep;St Dizier Biesme;;400;48.725;4.77278;
LF;LFSI/N;PtRep;St Dizier Cheminon;;550;48.7358;4.9025;
LF;LFSI/N2;PtRep;St Dizier Orconte;;400;48.6697;4.73583;
LF;LFSI/E2;PtRep;St Dizier Rachecourt;;580;48.5258;5.1025;
LF;LFSI/E1;PtRep;St Dizier Stainville;;700;48.6531;5.18583;
LF;LFSI/S;PtRep;St Dizier Wassy;;650;48.5031;4.95611;
LF;LFPZ/P1;PtRep;St-Cyr N12 Les Gâtines (78);;530;48.7992;1.96583;
LF;LFPZ/P2;PtRep;St-Cyr N12 ZAC Pissaloup (78);;520;48.7989;1.99083;
LF;LFST/E;PtRep;Strasbourg Base naut Plobsheim;;480;48.4769;7.75194;
LF;LFST/W;PtRep;Strasbourg Bât industriel;;640;48.6897;7.49889;
LF;LFST/WA;PtRep;Strasbourg Ch. Eau Kolbsheim;;680;48.5642;7.6;
LF;LFST/EA;PtRep;Strasbourg Ech. A35 D400;;480;48.525;7.66528;
LF;LFST/N;PtRep;Strasbourg Ech. Brumath Nord A4/A340;;515;48.7483;7.68417;
LF;LFST/W1;PtRep;Strasbourg Ergersheim D30/D45;;550;48.5694;7.52806;
LF;LFST/WB;PtRep;Strasbourg Ittenheim RN4;;590;48.6028;7.59583;
LF;LFST/S;PtRep;Strasbourg Jonct. Autor. A35/RN83;;540;48.3211;7.48833;
LF;LFST/N1;PtRep;Strasbourg Pt de l'Europe;;450;48.5736;7.80167;
LF;LFST/W2;PtRep;Strasbourg Rd Pt Dorlisheim;;600;48.52;7.49778;
LF;LFST/EB;PtRep;Strasbourg Rd Pt RN83 RN353;;460;48.5083;7.69667;
LF;LFST/NE;PtRep;Strasbourg Sud Gambsheim;;410;48.6839;7.87556;
LF;LFBT/EA;PtRep;Tarbes Momères;;1300;43.1764;0.0877778;
LF;LFBT/W;PtRep;Tarbes Pontacq;;1250;43.1928;-0.116389;
LF;LFBT/E;PtRep;Tarbes Viaduc Autoroute;;1200;43.1972;0.195278;
LF;LFHTSA/VS;PtRep;Toulon Hél. Ech Valette Sud;;165;43.1439;6.025;
LF;LFHTSA/GS;PtRep;Toulon Hél. Gare de la Seyne;;50;43.1156;5.86194;
LF;LFBO/SA;PtRep;Toulouse Boucle Ariège;;600;43.4;1.44167;
LF;LFBO/N;PtRep;Toulouse Castelnau;;400;43.7833;1.35;
LF;LFBO/EB;PtRep;Toulouse Ch. d'eau Blagnac;;500;43.6453;1.38333;
LF;LFBO/EN;PtRep;Toulouse Ech. N Montastruc;;610;43.7403;1.59167;
LF;LFBO/WD;PtRep;Toulouse Ech. N124 Zone Comm;;540;43.6064;1.30694;
LF;LFBO/NA;PtRep;Toulouse Gare triage Saint Jory;;410;43.7039;1.39194;
LF;LFBO/SL;PtRep;Toulouse Labastide Beauvoir;;850;43.4833;1.66667;
LF;LFBO/WF;PtRep;Toulouse Lac forêt Bouconne;;710;43.6403;1.22806;
LF;LFCL/AS;PtRep;Toulouse Lasb Astrium VF (ULM);;480;43.5639;1.4975;
LF;LFCL/AE;PtRep;Toulouse Lasb Lac de Laragou;;600;43.6939;1.66139;
LF;LFCL/DS;PtRep;Toulouse Lasb Lac Val de Saume;;550;43.5481;1.60833;
LF;LFCL/PI;PtRep;Toulouse Lasb Piscine (ULM);;610;43.5333;1.55278;
LF;LFCL/DN;PtRep;Toulouse Lasb Pont A68 D70;;650;43.6542;1.52472;
LF;LFBO/SN;PtRep;Toulouse Noé;;650;43.3583;1.275;
LF;LFBO/EA;PtRep;Toulouse Péage Nord;;450;43.6583;1.42528;
LF;LFBO/WH;PtRep;Toulouse Relais Hertzien;;550;43.6856;1.10278;
LF;LFBO/SB;PtRep;Toulouse Silos Bazièges;;560;43.4497;1.62917;
LF;LFOT/SW;PtRep;Tours Azay le Rideau (VF/Indre);;160;47.2633;0.445556;
LF;LFOT/N;PtRep;Tours Beaumont la Ronce (Château);;450;47.5708;0.67;
LF;LFOT/NE;PtRep;Tours Château Renault (N10/D766);;400;47.5903;0.899722;
LF;LFOT/S1;PtRep;Tours Ech. A10 Sud Tours;;300;47.3297;0.693333;
LF;LFOT/S;PtRep;Tours Esvres (VF/Indre);;250;47.2819;0.784722;
LF;LFOT/W;PtRep;Tours La Membrole (N138/D959);;220;47.4403;0.638611;
LF;LFOT/E;PtRep;Tours Vernou/Brenne (Tunnel TGV);;350;47.4244;0.836667;
LF;LFPN/NH;PtRep;Toussus NH (800 m Nord);;500;48.7592;2.1;
LF;LFLU/S;PtRep;Valence Ech. VF Livron;;360;44.7761;4.82639;
LF;LFLU/SA;PtRep;Valence Gare triage PLV;;360;44.8739;4.87167;
LF;LFHVAL/HN;PtRep;Valence Hél. Couleures;;500;44.9556;4.93139;
LF;LFHVAL/HS;PtRep;Valence Hél. Étoile;;580;44.8392;4.89472;
LF;LFLU/NE;PtRep;Valence Péage Chatuzange;;700;45.0258;5.09694;
LF;LFLU/NW;PtRep;Valence Pt sur Isère;;400;44.9986;4.87667;
LF;LFRV/N;PtRep;Vannes Colpo;;360;47.8183;-2.80611;
LF;LFRV/SE;PtRep;Vannes Échangeur SE Theix;;50;47.6108;-2.61056;
LF;LFRV/W;PtRep;Vannes Pont prox Bono;;20;47.6397;-2.95389;
LF;LFRV/E;PtRep;Vannes Silos Est Elven;;300;47.7206;-2.58861;
LF;LFPV/MOU;PtRep;Villacoublay Complexe sportif Moulon;;550;48.7081;2.16111;
LF;LFPV/S1;PtRep;Villacoublay Est Étang Saclay;;500;48.7403;2.17667;
LF;LFPV/S;PtRep;Villacoublay Stade Limours;;450;48.6419;2.08583;
LF;LFPV/W;PtRep;Villacoublay W Étang St-Quentin;;550;48.7903;1.99528;
